City_ID,City,Country,Max Temp,Current Description,Lat,Lng,Hotel Name
0,Grand Gaube,MU,77.0,overcast clouds,-20.0064,57.6608,Veranda Paul et Virginie Hotel & Spa
10,Acaraú,BR,75.92,few clouds,-2.8856,-40.12,castelo pizzaria
13,Bontang,ID,86.27,broken clouds,0.1333,117.5,KOPKAR Hotel Bintang Sintuk
14,Arraial do Cabo,BR,73.11,clear sky,-22.9661,-42.0278,Pousada Porto Praia
16,Vaini,TO,82.4,light rain,-21.2,-175.2,Keleti Beach Resort
17,Avarua,CK,80.6,broken clouds,-21.2078,-159.775,Paradise Inn
18,Yining,CN,78.89,overcast clouds,29.0361,114.5636,Xiushui Hotel
19,Malindi,KE,78.8,broken clouds,-3.2175,40.1191,African House Resort
20,Puerto Ayora,EC,75.0,scattered clouds,-0.7393,-90.3518,Finch Bay Galapagos Hotel
21,Bima,ID,88.45,scattered clouds,-8.4667,118.7167,Lambitu Hotel
25,Saint-Philippe,RE,78.8,light rain,-21.3585,55.7679,"Chambres d'hôte ""La Trinité"""
28,Mangan,IN,79.5,clear sky,27.5167,88.5333,Hotel Mout View
30,Sur,OM,89.73,clear sky,22.5667,59.5289,Sur Plaza Hotel
35,Lang Son,VN,84.18,overcast clouds,21.8333,106.7333,Khai Nga Hotel
38,Hithadhoo,MV,83.23,overcast clouds,-0.6,73.0833,Scoop Guest House
40,Road Town,VG,79.0,broken clouds,18.4167,-64.6167,"ZINGARA 76ft Catamaran, full crew-all included"
42,Hong Kong,HK,86.0,few clouds,22.2855,114.1577,Mini Hotel Central
43,Busselton,AU,73.99,broken clouds,-33.65,115.3333,Observatory Guest House
47,Rūdbār,AF,77.81,clear sky,30.15,62.6,
65,Carnarvon,AU,78.8,overcast clouds,-24.8667,113.6333,Hospitality Carnarvon
66,Eydhafushi,MV,83.17,scattered clouds,5.1033,73.0708,Soneva Fushi
67,Rikitea,PF,78.01,light rain,-23.1203,-134.9692,Pension Maro'i
69,Cabedelo,BR,75.2,clear sky,-6.9811,-34.8339,Hotel Pigalle
71,Chodavaram,IN,89.6,haze,17.8333,82.95,Ganesh Defence Academy chodavadaram hostel
72,Atuona,PF,80.08,light rain,-9.8,-139.0333,Villa Enata
74,Faqirwali,PK,88.25,clear sky,29.4663,73.03399999999999,Al makkah tayer faqirwali
75,Lorengau,PG,85.26,moderate rain,-2.0226,147.2712,Lorengau Harbourside Hotel
77,Booué,GA,71.33,overcast clouds,-0.0921,11.9385,Splendeur de l'équateur
78,Acapulco de Juárez,MX,79.18,overcast clouds,16.8634,-99.8901,HS Hotsson Smart Acapulco
81,Kapaa,US,75.2,scattered clouds,22.0752,-159.319,Sheraton Kauai Resort at Coconut Beach
82,Biak,ID,83.5,moderate rain,-0.9131,122.8766,Penginapan Kim
84,Kuching,MY,89.6,scattered clouds,1.55,110.3333,The Ranee Boutique Suites
85,Karratha,AU,89.82,clear sky,-20.7377,116.8463,ibis Styles Karratha
87,Abu Dhabi,AE,78.8,clear sky,24.4667,54.3667,Ramee Garden Hotel Apartments
88,Pīshvā,IR,80.6,few clouds,35.308,51.7267,شهرک خورشید هشتم
93,Mahébourg,MU,73.4,broken clouds,-20.4081,57.7,Shandrani Beachcomber Resort & Spa
96,Cabo San Lucas,MX,72.0,overcast clouds,22.8909,-109.9124,Hotel Tesoro Los Cabos
97,Vanimo,PG,82.98,overcast clouds,-2.6741,141.3028,Vahmoneh Lodge Vanimo
99,Le Port,RE,78.8,light rain,-20.9373,55.2919,KORBEY D'OR OUEST
103,Vangaindrano,MG,72.55,light rain,-23.35,47.6,Hotel Fanilo
107,Kulhudhuffushi,MV,83.48,scattered clouds,6.6221,73.07,Haajy Guest House 1
108,Mitsamiouli,KM,81.05,light rain,-11.3847,43.2844,Foyer ADM
113,George Town,MY,87.8,few clouds,5.4112,100.3354,Cititel Penang
119,Naze,JP,75.2,broken clouds,28.3667,129.4833,奄美ポートタワーホテル
124,Abengourou,CI,73.26,overcast clouds,6.7297,-3.4964,Hotel des Princes
130,Faanui,PF,81.34,light rain,-16.4833,-151.75,Bora-Bora Pearl Beach Resort & Spa
132,Caravelas,BR,72.73,broken clouds,-17.7125,-39.2481,Pousada dos Navegantes
134,Fonte Boa,BR,73.38,overcast clouds,-2.4959,-66.2662,
135,Souillac,MU,73.4,broken clouds,-20.5167,57.5167,Shanti Maurice Resort & Spa
138,Yulara,AU,77.0,clear sky,-25.2406,130.9889,Desert Gardens Hotel - Ayers Rock Resort
145,Bilma,NE,83.08,few clouds,18.6853,12.9164,Expeditions Ténére voyages
148,Salalah,OM,82.4,clear sky,17.0151,54.0924,HAMDAN PLAZA HOTEL SALALAH
150,Soto la Marina,MX,75.0,broken clouds,23.7667,-98.2167,Hotel Chicago
153,Weligama,LK,85.89,scattered clouds,5.9667,80.4167,Weligama Bay Resort
154,Ratnagiri,IN,87.6,light rain,16.9833,73.3,Hotel Landmark
155,Boende,CD,70.36,moderate rain,-0.2167,20.8667,
156,Umm Kaddadah,SD,80.67,broken clouds,13.6017,26.6876,
157,Butaritari,KI,83.12,broken clouds,3.0707,172.7902,Isles Sunset Lodge
162,Nioro,GM,74.59,overcast clouds,13.35,-15.75,
168,Adrar,MR,72.18,clear sky,20.5022,-10.0711,
176,Bathsheba,BB,78.8,scattered clouds,13.2167,-59.5167,Atlantis Hotel
179,Manoel Urbano,BR,72.16,broken clouds,-8.8389,-69.2597,Baixada Beira Rio
181,Tabou,CI,79.09,overcast clouds,4.423,-7.3528,hotêl doufoulougou
182,Tual,ID,82.98,few clouds,-5.6667,132.75,Grand Vilia Hotel
183,Hobyo,SO,85.53,overcast clouds,5.3505,48.5268,Halane Hotel and Restaurent
188,Sirte,LY,71.51,few clouds,31.2089,16.5887,الهادي ابوشعاله سرت
192,Tawao,MY,87.8,few clouds,4.2498,117.8871,Shervinton Executive Boutique Hotel
193,Along,IN,81.5,scattered clouds,28.1667,94.7667,Hotel West
194,Ābādān,IR,80.6,haze,30.3392,48.3043,سالن مراسمات خانه معلم
195,Hilo,US,78.8,scattered clouds,19.7297,-155.09,Hilo Hawaiian Hotel
200,Flinders,AU,72.0,clear sky,-34.5833,150.8552,Shellharbour Resort & Conference Centre
208,Ouadda,CF,71.69,overcast clouds,8.0777,22.4007,
214,San Patricio,US,75.2,overcast clouds,28.017,-97.5169,"Motel 6 Sinton, TX"
216,Makkah al Mukarramah,SA,87.51,few clouds,21.4267,39.8261,"Makkah Clock Royal Tower, A Fairmont Hotel"
217,Labuhan,ID,85.64,few clouds,-6.8844,112.2051,PT PPI Lamongan Tambak C
218,Robertsport,LR,76.33,heavy intensity rain,6.7533,-11.3686,Kwepunha Retreat
219,Kifrī,IQ,87.58,broken clouds,34.6959,44.9661,میزان کفری
220,Bambous Virieux,MU,77.0,broken clouds,-20.3428,57.7575,Casa Tia Villa
221,Ixtapa,MX,77.0,scattered clouds,20.7,-105.2,Hotel Plaza Providencia
223,Timbiquí,CO,75.42,light rain,2.7717,-77.6654,hotel diana
227,Douentza,ML,82.24,scattered clouds,14.9951,-2.9517,Ogomono Doumbo
229,Ganzhou,CN,77.81,broken clouds,28.8184,115.4327,Laotou Farm Restaurant Hostel
233,Samarai,PG,83.68,broken clouds,-10.6167,150.6667,Nuli Sapi
235,Santa Rita,BR,75.2,clear sky,-7.1139,-34.9781,Infinity Motel
237,Dicabisagan,PH,86.07,broken clouds,17.0818,122.4157,Nancy Montanes Bernardo
238,Pochutla,MX,82.0,clear sky,15.7432,-96.4661,Hotel Posada San Jose
246,Gizo Government Station,SB,83.77,light rain,-8.103,156.8419,Imagination Island
248,Sibolga,ID,83.03,overcast clouds,1.7427,98.7792,Hotel Syariah CN Darussalam
251,Omboué,GA,73.58,overcast clouds,-1.5746,9.2618,Hotel Olako
255,Curaçá,BR,72.77,broken clouds,-8.9903,-39.9094,Curaca
257,Vice,PE,71.82,scattered clouds,-5.4167,-80.7833,Hospedaje San Jacinto
258,Emerald,AU,78.01,overcast clouds,-23.5333,148.1667,The Irish Village
260,Perth,AU,82.99,clear sky,-31.9333,115.8333,Beatty Lodge
272,Japura,ID,88.25,light rain,-0.3167,102.35,Rumah mbah Jamah
274,Puerto El Triunfo,SV,77.0,few clouds,13.2833,-88.55,Hotel Jardin
281,Balkanabat,TM,74.44,overcast clouds,39.5108,54.3671,Nebitchi Hotel
283,Bengkulu,ID,83.55,broken clouds,-3.8004,102.2655,Grage Hotel Bengkulu
284,Port-Gentil,GA,76.82,overcast clouds,-0.7193,8.7815,Fengshui Residence
286,Pitimbu,BR,75.2,clear sky,-7.4706,-34.8086,Reserva do Abiaí
289,Berbera,SO,84.02,overcast clouds,10.4396,45.0143,IBCO REAL ESTATE PROPERTY
291,Kampot,KH,84.2,scattered clouds,10.6167,104.1833,Two Moons Hotel
295,Atar,MR,73.29,clear sky,20.5169,-13.0499,Oumou Elghoura
298,Camocim,BR,75.33,broken clouds,-2.9022,-40.8411,Hotel Ilha do Amor
306,Celestún,MX,80.24,broken clouds,20.8667,-90.4,Posada Lilia
309,Oriximiná,BR,73.94,heavy intensity rain,-1.7656,-55.8661,Pousada Tia Amélia
312,Isangel,VU,86.0,scattered clouds,-19.55,169.2667,Tanna Lodge
314,Champasak,LA,89.6,scattered clouds,14.75,106.0,Kiat Ngong Wetland BUNGALOW
315,Port Macquarie,AU,72.0,clear sky,-31.4333,152.9167,Rydges Port Macquarie
316,Alice Springs,AU,73.99,clear sky,-23.7,133.8833,Desert Palms Alice Springs
324,Carutapera,BR,74.66,overcast clouds,-1.195,-46.02,Lidera
328,Kudat,MY,89.6,few clouds,6.8837,116.8477,Dream Garden Hotel
329,Kavieng,PG,82.26,light rain,-2.5744,150.7967,Nusa Island Retreat
331,São Filipe,CV,71.19,scattered clouds,14.8961,-24.4956,Tortuga B&B
333,Port Blair,IN,86.72,overcast clouds,11.6667,92.75,Welcomhotel Bay Island Port Blair
334,Iseyin,NG,75.25,broken clouds,7.9667,3.6,Momak Hotels And Suites
341,Itaituba,BR,72.37,broken clouds,-4.2761,-55.9836,Hotel Campos
342,Porto-Novo,BJ,80.6,light rain,6.4965,2.6036,Tour Eiffel Hotel Benin
343,Djibouti,DJ,84.2,haze,11.5,42.5,Orchid Main Camp Goubet
344,Hirara,JP,75.2,broken clouds,24.8,125.2833,Hotel Atoll Emerald Miyakojima
348,Kahului,US,78.8,few clouds,20.8947,-156.47,Maui Seaside Hotel
350,Kaduqli,SD,83.39,broken clouds,11.0167,29.7167,فندق الله جابو
353,Puerto Escondido,MX,81.34,scattered clouds,15.85,-97.0667,Aldea del Bazar Hotel and Spa
355,Yenagoa,NG,78.37,overcast clouds,4.9247,6.2642,Aridolf Resort Wellness and Spa
358,Fare,PF,80.65,light rain,-16.7,-151.0167,Maitai Lapita Village Huahine
361,Rock Sound,BS,77.83,few clouds,24.9,-76.2,Rock Sound Club
370,Touros,BR,75.2,light rain,-5.1989,-35.4608,INN NEW HORIZON
373,Jaqué,PA,77.97,few clouds,7.5175,-78.1703,Imbu Bua Lodge
376,Mongar,BT,74.5,clear sky,27.2747,91.2396,Wangchuk Hotel
382,Wanning,CN,85.78,clear sky,18.8003,110.3967,Paradise Hotel
388,Bairiki Village,KI,78.8,broken clouds,1.3292,172.9752,Tarawa Boutique Hotel
390,Sorong,ID,83.08,broken clouds,-0.8833,131.25,waigo splash hotel
392,Waingapu,ID,84.25,clear sky,-9.6567,120.2641,Pondok Wisata Elim
396,Meulaboh,ID,85.3,overcast clouds,4.1363,96.1285,Kost Pria
404,Mayumba,GA,75.02,light rain,-3.432,10.6554,LIKWALE LODGE
405,Bacolod City,PH,87.76,broken clouds,10.6667,122.95,Planta Hotel & Residences
410,Humaitá,BR,74.93,overcast clouds,-7.5061,-63.0208,Corrêa Hotel
412,Taoudenni,ML,82.58,clear sky,22.6783,-3.9836,
414,Diffa,NE,82.92,clear sky,13.3154,12.6113,ProDAF/Diffa
418,Mahibadhoo,MV,83.1,overcast clouds,3.7833,72.9667,Omadhoo Inn
420,Soyo,AO,77.32,moderate rain,-6.1349,12.3689,Hotel Mpampa
427,Eyl,SO,84.7,scattered clouds,7.9803,49.8164,Amiin Hotel
429,Puerto Colombia,CO,80.6,clear sky,10.9878,-74.9547,Hotel El Emigrante
433,Puerto Nariño,CO,77.0,clear sky,-3.7703,-70.3831,Eware Refugio Amazonico
434,La Santisima Trinidad,BO,73.31,broken clouds,-14.8333,-64.9,Hotel Piesta
437,Poum,NC,79.47,overcast clouds,-20.2333,164.0167,Gîte kajeon
446,Tessalit,ML,79.11,clear sky,20.1986,1.0114,
447,Geraldton,AU,87.8,overcast clouds,-28.7667,114.6,Broadwater Mariner Resort
449,Galveston,US,70.0,overcast clouds,29.3669,-94.9669,Comfort Inn & Suites Texas City
450,Sabang,ID,83.73,overcast clouds,5.8933,95.3214,Hotel Citra
458,Bubaque,GW,77.74,scattered clouds,11.2833,-15.8333,"Casa Dora, Bubaque"
463,Cam Ranh,VN,87.8,few clouds,11.9214,109.1591,OYO 598 Peony Hotel
472,Corralillo,CU,76.26,few clouds,22.9819,-80.5856,Hostal De Pedri
474,Puro,PH,85.44,overcast clouds,12.4841,123.3827,
475,Hambantota,LK,87.8,few clouds,6.1241,81.1185,Bungalow 63
478,Doka,SD,87.06,broken clouds,13.5167,35.7667,
480,Tautira,PF,82.4,light rain,-17.7333,-149.15,Pension Oaoa
481,Komono,JP,70.0,broken clouds,35.0,136.5167,Aqua Ignis
488,Alofi,NU,81.09,broken clouds,-19.0595,-169.9187,Taloa Heights
490,Tonantins,BR,72.84,overcast clouds,-2.8731,-67.8022,Hotel Rei Davi
493,Basoko,CD,71.28,overcast clouds,1.2391,23.616,Flat Hotel La Benediction
499,Bandarbeyla,SO,83.86,overcast clouds,9.4942,50.8122,JABIR HOTEL
500,Hervey Bay,AU,75.0,broken clouds,-25.2986,152.8535,Shelly Bay Resort
501,Mount Isa,AU,84.2,clear sky,-20.7333,139.5,ibis Styles Mt Isa Verona
503,Arboletes,CO,80.55,broken clouds,8.8505,-76.4269,Hotel Playa Star
510,Santa Isabel Rio Negro,BR,73.8,overcast clouds,-0.4139,-65.0192,Hotel GSA
515,Mūlki,IN,77.0,broken clouds,13.1,74.8,Karnire Camping Ground
520,Makakilo City,US,80.6,clear sky,21.3469,-158.0858,Marriott's Ko Olina Beach Club
521,Jiazi,CN,81.14,scattered clouds,22.8779,116.06700000000001,Hotel Jin Hao
522,Itarema,BR,75.15,scattered clouds,-2.9248,-39.9167,"Sea Lounge! Bar, Club & Restaurant"
527,Buala,SB,84.36,overcast clouds,-8.145,159.5921,Maringe Lagoon Lodge
528,Abonnema,NG,78.33,moderate rain,4.7084,6.7931,Corper's Lodge Obonoma
536,Palmas,BR,73.4,scattered clouds,-10.2128,-48.3603,Hotel Lago da Palma
537,Sambava,MG,76.64,moderate rain,-14.2667,50.1667,Melrose
540,Leer,SS,79.95,overcast clouds,8.3018,30.1418,
543,Jamkhandi,IN,89.01,broken clouds,16.5167,75.3,Hotel Shreyas
548,Mossamedes,AO,79.93,scattered clouds,-15.1961,12.1522,Hotel Chik Chik Namibe
554,Barra de Tecoanapa,MX,80.37,overcast clouds,16.5167,-98.75,Hotel Manglares
557,Porto de Moz,BR,71.49,light rain,-1.7483,-52.2383,Dormitório labelle
559,Almeirim,BR,72.75,overcast clouds,-1.5233,-52.5817,Ricácio Hotel
568,Yaan,NG,79.0,overcast clouds,7.3833,8.5667,
569,Qui Nhon,VN,85.64,scattered clouds,13.7667,109.2333,Hoang Yen Canary Hotel
570,Brownsville,US,75.2,overcast clouds,25.9018,-97.4975,University Inn & Suites
576,Téra,NE,84.99,clear sky,14.0078,0.7531,Hotel Dar es salam
580,Davila,PH,84.2,few clouds,18.4726,120.5763,Blue Ridge Beach Resort
581,Biri,PH,83.82,overcast clouds,12.6833,124.3636,Exequiel and Wyn Lodging House
584,Jhajjar,IN,77.0,moderate rain,28.6063,76.6565,Sainik Rest House
591,Katiola,CI,73.4,scattered clouds,8.1333,-5.1,Auberge Residence Yebin
595,Nuevo Progreso,MX,75.0,overcast clouds,23.1667,-97.95,Balneario Rio el Paraiso
598,Crato,BR,75.2,scattered clouds,-7.2342,-39.4094,"Loft no Centro do Crato, ao lado da Praça da Sé"
601,Mareeba,AU,82.99,light rain,-17.0,145.4333,Trinity Plains Tourist Park
604,Cape Coast,GH,80.82,scattered clouds,5.1053,-1.2466,Samrit Hotel
605,Zhangjiakou,CN,72.57,clear sky,40.81,114.8794,Shell Zhangjiakou City Qiaodong District Ginza Hotel
609,Port Moresby,PG,87.8,moderate rain,-9.4431,147.1797,Lamana Hotel
610,Keti Bandar,PK,86.32,clear sky,24.1447,67.4497,Haji laloo memon house
611,Nova Olinda do Norte,BR,74.66,light rain,-3.8881,-59.0942,Casa Juazeiro
614,Ruteng,ID,74.62,few clouds,-8.6136,120.4721,Hotel FX72 Ruteng
616,Buraidah,SA,73.4,few clouds,26.326,43.975,فندق راحة السلام
617,Airai,TL,75.02,scattered clouds,-8.9266,125.4092,Juvinal Martin
619,Itupiranga,BR,72.88,overcast clouds,-5.1347,-49.3267,Hotel Panorama
624,Lázaro Cárdenas,MX,75.15,overcast clouds,17.9583,-102.2,Hotel Quinta Antigua
627,Ipixuna,BR,73.4,broken clouds,-1.7625,-48.8043,Casa da Oscarina
628,Kodīnar,IN,88.68,overcast clouds,20.7903,70.7031,Gayatri Auto advisor
630,Catuday,PH,80.98,scattered clouds,16.2923,119.8062,GResort
634,Namatanai,PG,77.67,moderate rain,-3.6667,152.4333,Namatanai Hotel
635,Ciudad de Armería,MX,71.38,overcast clouds,18.9333,-103.9667,Hotel la Herradura
636,Nioki,CD,71.1,light rain,-2.7167,17.6833,
638,Sakété,BJ,80.6,light rain,6.7362,2.6587,IBUKUN OLUWA
639,Saint-Pierre,RE,78.8,light rain,-21.3393,55.4781,Lindsey Hôtel
640,Bom Jesus,BR,72.16,broken clouds,-9.0744,-44.3586,Hotel Brasão & Floricultura Bella Flor
641,Delhi,IN,77.0,broken clouds,28.6667,77.2167,Maidens Hotel
642,Nanchang,CN,76.78,broken clouds,28.6833,115.8833,Gloria Plaza Hotel Nanchang
644,Coahuayana Viejo,MX,70.7,overcast clouds,18.7333,-103.6833,El rranchito michuacan de ocampos
649,Sola,VU,83.53,overcast clouds,-13.8833,167.55,Leumerus Bungalows
650,Sakakah,SA,75.2,few clouds,29.9697,40.2064,Fakhamat Al Orjoana Apartment
655,Buchanan,LR,73.4,broken clouds,5.8808,-10.0467,Kamaneahn Hotel Inc
657,Miramar,US,75.99,overcast clouds,25.9873,-80.2323,Miramar
658,Padang,ID,86.0,scattered clouds,-0.9492,100.3543,Mercure Padang
660,Koumac,NC,78.89,overcast clouds,-20.5667,164.2833,Le Monitel
661,Trairi,BR,74.07,scattered clouds,-3.2778,-39.2689,janelas do mar
665,Bambanglipuro,ID,85.17,few clouds,-7.95,110.2833,Puri Brata
666,Kupang,ID,84.25,clear sky,-10.1667,123.5833,Hotel On The Rock by Prasanthi
667,Malakal,SS,81.86,scattered clouds,9.5334,31.6605,Nile Palace Hotel
670,Qujing,CN,83.53,scattered clouds,25.4833,103.7833,Yulong Hotel
677,Chapada dos Guimarães,BR,73.4,clear sky,-15.4606,-55.7497,Pousada Morro Dos Ventos
678,Āsosa,ET,70.75,broken clouds,10.0667,34.5333,Blendana Hotel Assosa
